{"city":"Berlin","category":"park_offleash_area","name":"Tempelhofer Feld Dog Run (Oderstraße)","address":"Oderstr. 191, 12051 Berlin","district":"Neukölln","lat":52.4747,"lng":13.4312,"description":"Large fenced dog area on the former airport grounds; agility obstacles nearby.","features":{"off_leash_allowed":"Zoned","water_bowls":"UNKNOWN"},"rating":4.6,"ratingCount":1200,"photoUrls":["https://upload.wikimedia.org/wikipedia/commons/3/37/Tempelhofer_Feld_2018.jpg"],"sourceUrls":["https://maps.google.com/","https://de.wikipedia.org/wiki/Tempelhofer_Feld"]}
{"city":"Berlin","category":"lake_swim","name":"Grunewaldsee Hundestrand","address":"Hundeauslaufgebiet Grunewald, 14193 Berlin","district":"Charlottenburg-Wilmersdorf","lat":52.4737,"lng":13.2618,"description":"Forest lake with popular dog beach; large off-leash area in Grunewald.","features":{"off_leash_allowed":"Always"},"activity":{"type":"lake","attrs":{"entry":"beach","shallow_entry":true}},"rating":4.7,"ratingCount":2300,"photoUrls":["https://upload.wikimedia.org/wikipedia/commons/5/55/Grunewaldsee.jpg"],"sourceUrls":["https://maps.google.com/"]}
{"city":"Berlin","category":"cafe_restaurant_bar","name":"Brammibal's Donuts (Potsdamer Platz)","address":"Alte Potsdamer Str. 7, 10785 Berlin","district":"Mitte","lat":52.5098,"lng":13.3733,"website":"https://brammibalsdonuts.com/","description":"Dog-welcoming vegan donut shop; water bowl & treats at the counter.","features":{"dogs_allowed_indoors":"true","water_bowls":"true"},"rating":4.6,"ratingCount":1400,"photoUrls":["https://images.unsplash.com/photo-1541976076758-347942db1970"],"sourceUrls":["https://maps.google.com/"]}
{"city":"Berlin","category":"cafe_restaurant_bar","name":"The Future Breakfast","address":"Boppstr. 32, 10967 Berlin","district":"Kreuzberg","lat":52.4905,"lng":13.4166,"website":"https://thefuturebreakfast.berlin/","description":"Brunch spot by dog lovers; pups welcome, friendly staff.","features":{"dogs_allowed_indoors":"true","water_bowls":"true"},"rating":4.6,"ratingCount":1000,"photoUrls":["https://images.unsplash.com/photo-1470337458703-46ad1756a187"],"sourceUrls":["https://maps.google.com/"]}
{"city":"Berlin","category":"pet_store_boutique","name":"Hauptstadthund","address":"Linienstr. 139/140, 10115 Berlin","district":"Mitte","lat":52.5302,"lng":13.4007,"website":"https://hauptstadthund.berlin/","description":"Premium pet boutique with natural foods and stylish gear.","rating":4.8,"ratingCount":250,"photoUrls":["https://images.unsplash.com/photo-1517849845537-4d257902454a"],"sourceUrls":["https://maps.google.com/"]}
{"city":"Berlin","category":"vet_clinic_hospital","name":"AniCura Tierarztpraxis Berlin","address":"Wilmersdorf (multiple)","district":"Charlottenburg-Wilmersdorf","lat":52.496,"lng":13.317,"website":"https://www.anicura.de/","description":"Well-equipped veterinary clinic; comprehensive services.","rating":4.7,"ratingCount":500,"photoUrls":["https://images.unsplash.com/photo-1552053831-71594a27632d"],"sourceUrls":["https://maps.google.com/"]}
{"city":"Berlin","category":"dog_groomer","name":"McGroomer Hundefriseure","address":"Kurfürstendamm 132, 10711 Berlin","district":"Charlottenburg-Wilmersdorf","lat":52.4966,"lng":13.2909,"website":"https://mcgroomer.de/","description":"5★ grooming; gentle handling, breed-standard cuts.","rating":5.0,"ratingCount":80,"photoUrls":["https://images.unsplash.com/photo-1507149833265-60c372daea22"],"sourceUrls":["https://maps.google.com/"]}
{"city":"Berlin","category":"dog_hotel_boarding","name":"Four Dogs Hundehotel","address":"Rudower Chaussee 14, 12489 Berlin","district":"Treptow-Köpenick","lat":52.4289,"lng":13.5367,"website":"https://fourdogs.de/","description":"24/7 staff, modern suites, indoor/outdoor play & pool.","rating":4.8,"ratingCount":120,"photoUrls":["https://images.unsplash.com/photo-1525253013412-55c1a69a5738"],"sourceUrls":["https://maps.google.com/"]}
{"city":"Berlin","category":"dog_walker_trainer","name":"Hundetrainer Stefan Thal","address":"Wilmersdorf","district":"Charlottenburg-Wilmersdorf","lat":52.489,"lng":13.312,"website":"https://hundetrainer-berlin.de/","description":"Top-rated 1-on-1 training & behavior consulting.","rating":5.0,"ratingCount":260,"photoUrls":["https://images.unsplash.com/photo-1507149833265-60c372daea22"],"sourceUrls":["https://maps.google.com/"]}
