[
  {
    "id": "nyc-central-park-offleash",
    "country": "united-states",
    "city": "new-york",
    "name": "Central Park Off-Leash Area",
    "category": "parks",
    "lat": 40.785091,
    "lon": -73.968285,
    "description": "Multiple dog-friendly areas including the popular North Meadow Recreation Center. Dogs can run off-leash before 9am and after 9pm.",
    "photos": [
      "https://images.unsplash.com/photo-1568393691622-c7ba131d63b4?w=800"
    ],
    "verified": false
  },
  {
    "id": "nyc-boris-and-horton",
    "country": "united-states",
    "city": "new-york",
    "name": "Boris & Horton",
    "category": "cafes_restaurants",
    "lat": 40.723176,
    "lon": -73.985996,
    "address": "195 Avenue A, New York, NY 10009",
    "website": "https://www.borisandhorton.com",
    "description": "NYC's first dog cafe featuring adoptable rescue dogs, great coffee, and a dedicated dog menu.",
    "photos": [
      "https://images.unsplash.com/photo-1554118811-1e0d58224f24?w=800"
    ],
    "verified": false
  },
  {
    "id": "la-runyon-canyon",
    "country": "united-states",
    "city": "los-angeles",
    "name": "Runyon Canyon Park",
    "category": "trails",
    "lat": 34.111917,
    "lon": -118.355032,
    "description": "Popular off-leash hiking trail with stunning views of Los Angeles. Great for energetic dogs.",
    "photos": [
      "https://images.unsplash.com/photo-1601758228041-f3b2795255f1?w=800"
    ],
    "verified": false
  },
  {
    "id": "la-little-doms",
    "country": "united-states",
    "city": "los-angeles",
    "name": "Little Dom's",
    "category": "cafes_restaurants",
    "lat": 34.097589,
    "lon": -118.289429,
    "address": "2128 Hillhurst Ave, Los Angeles, CA 90027",
    "website": "https://www.littledoms.com",
    "description": "Classic Italian restaurant with a dog-friendly patio. Provides water bowls for four-legged guests.",
    "photos": [
      "https://images.unsplash.com/photo-1517248135467-4c7edcad34c4?w=800"
    ],
    "verified": false
  },
  {
    "id": "sydney-centennial-park",
    "country": "australia",
    "city": "sydney",
    "name": "Centennial Park Off-Leash Area",
    "category": "parks",
    "lat": -33.897347,
    "lon": 151.232621,
    "description": "Large enclosed off-leash area in Sydney's iconic Centennial Park. Separate sections for small and large dogs.",
    "photos": [
      "https://images.unsplash.com/photo-1568393691622-c7ba131d63b4?w=800"
    ],
    "verified": false
  },
  {
    "id": "sydney-grounds-alexandria",
    "country": "australia",
    "city": "sydney",
    "name": "The Grounds of Alexandria",
    "category": "cafes_restaurants",
    "lat": -33.907768,
    "lon": 151.193611,
    "address": "7a/2 Huntley St, Alexandria NSW 2015",
    "website": "https://thegrounds.com.au",
    "description": "Beautiful garden cafe with plenty of outdoor seating. Very popular with dog owners on weekends.",
    "photos": [
      "https://images.unsplash.com/photo-1559925393-8be0ec4767c8?w=800"
    ],
    "verified": false
  },
  {
    "id": "melbourne-fawkner-park",
    "country": "australia",
    "city": "melbourne",
    "name": "Fawkner Park Off-Leash Area",
    "category": "parks",
    "lat": -37.838958,
    "lon": 144.989776,
    "description": "Popular off-leash dog park in South Yarra. Great for socializing and morning runs.",
    "photos": [
      "https://images.unsplash.com/photo-1568393691622-c7ba131d63b4?w=800"
    ],
    "verified": false
  },
  {
    "id": "melbourne-brother-baba-budan",
    "country": "australia",
    "city": "melbourne",
    "name": "Brother Baba Budan",
    "category": "cafes_restaurants",
    "lat": -37.814003,
    "lon": 144.963878,
    "address": "359 Little Bourke St, Melbourne VIC 3000",
    "description": "Iconic Melbourne cafe with outdoor seating. Dogs welcome at outdoor tables.",
    "photos": [
      "https://images.unsplash.com/photo-1495474472287-4d71bcdd2085?w=800"
    ],
    "verified": false
  },
  {
    "id": "buenosaires-parque-centenario",
    "country": "argentina",
    "city": "buenos-aires",
    "name": "Parque Centenario",
    "category": "parks",
    "lat": -34.606667,
    "lon": -58.434444,
    "description": "Large park with off-leash areas. Popular spot for dog owners in Buenos Aires with plenty of shade.",
    "photos": [
      "https://images.unsplash.com/photo-1568393691622-c7ba131d63b4?w=800"
    ],
    "verified": false
  },
  {
    "id": "buenosaires-ninina-bakery",
    "country": "argentina",
    "city": "buenos-aires",
    "name": "Ninina Bakery",
    "category": "cafes_restaurants",
    "lat": -34.588234,
    "lon": -58.420349,
    "address": "Gorriti 4867, Buenos Aires",
    "description": "Charming bakery and cafe in Palermo with outdoor seating. Dogs always welcome.",
    "photos": [
      "https://images.unsplash.com/photo-1509042239860-f550ce710b93?w=800"
    ],
    "verified": false
  },
  {
    "id": "cordoba-parque-sarmiento",
    "country": "argentina",
    "city": "cordoba",
    "name": "Parque Sarmiento",
    "category": "parks",
    "lat": -31.417629,
    "lon": -64.193092,
    "description": "Córdoba's largest park with designated dog areas. Beautiful green spaces and walking paths.",
    "photos": [
      "https://images.unsplash.com/photo-1568393691622-c7ba131d63b4?w=800"
    ],
    "verified": false
  },
  {
    "id": "cordoba-manifiesto-cafe",
    "country": "argentina",
    "city": "cordoba",
    "name": "Manifiesto Café",
    "category": "cafes_restaurants",
    "lat": -31.423812,
    "lon": -64.188764,
    "address": "Av. Hipólito Yrigoyen 323, Córdoba",
    "description": "Modern cafe with outdoor seating in Nueva Córdoba. Dog-friendly atmosphere.",
    "photos": [
      "https://images.unsplash.com/photo-1554118811-1e0d58224f24?w=800"
    ],
    "verified": false
  },
  {
    "id": "tokyo-yoyogi-park",
    "country": "japan",
    "city": "tokyo",
    "name": "Yoyogi Park",
    "category": "parks",
    "lat": 35.672855,
    "lon": 139.696759,
    "description": "One of Tokyo's largest parks. Dogs must be on-leash but it's a popular gathering spot for dog owners.",
    "photos": [
      "https://images.unsplash.com/photo-1568393691622-c7ba131d63b4?w=800"
    ],
    "verified": false
  },
  {
    "id": "tokyo-dog-heart",
    "country": "japan",
    "city": "tokyo",
    "name": "Dog Heart from Aquadina",
    "category": "cafes_restaurants",
    "lat": 35.662823,
    "lon": 139.698774,
    "address": "5 Chome-24-2 Jingumae, Shibuya City, Tokyo",
    "website": "https://www.dogheart.jp",
    "description": "Tokyo's famous dog cafe with homemade treats for dogs and their owners. Indoor and terrace seating.",
    "photos": [
      "https://images.unsplash.com/photo-1554118811-1e0d58224f24?w=800"
    ],
    "verified": false
  },
  {
    "id": "new-york-central-park-dog-run",
    "country": "united-states",
    "city": "new-york",
    "name": "Central Park Dog Run",
    "category": "parks",
    "lat": 40.7829,
    "lon": -73.9654,
    "address": "Central Park, 85th St Transverse, New York, NY 10024",
    "website": "https://www.centralparknyc.org/locations/dog-runs",
    "description": "Off-leash dog area in Central Park with separate small and large dog sections",
    "photos": [
      "https://images.unsplash.com/photo-1568515045052-f9a854d70bfd?auto=format&fit=crop&w=800&q=80"
    ],
    "verified": true
  },
  {
    "id": "new-york-boris-horton",
    "country": "united-states",
    "city": "new-york",
    "name": "Boris & Horton",
    "category": "cafes_restaurants",
    "lat": 40.7282,
    "lon": -73.9857,
    "address": "195 Avenue A, New York, NY 10009",
    "website": "https://www.borisandhorton.com",
    "phone": "+1-212-933-1495",
    "description": "Dog-friendly café in the East Village with treats for pups and specialty coffee for humans",
    "photos": [
      "https://images.unsplash.com/photo-1554118811-1e0d58224f24?auto=format&fit=crop&w=800&q=80"
    ],
    "verified": true
  },
  {
    "id": "new-york-prospect-park-dog-beach",
    "country": "united-states",
    "city": "new-york",
    "name": "Prospect Park Dog Beach",
    "category": "parks",
    "lat": 40.6602,
    "lon": -73.969,
    "address": "Prospect Park, Brooklyn, NY 11225",
    "website": "https://www.prospectpark.org/visit-the-park/dog-rules",
    "description": "Seasonal off-leash dog beach area at Prospect Park Lake with swimming access",
    "photos": [
      "https://images.unsplash.com/photo-1601758228041-f3b2795255f1?auto=format&fit=crop&w=800&q=80"
    ],
    "verified": true
  },
  {
    "id": "new-york-the-watering-bowl",
    "country": "united-states",
    "city": "new-york",
    "name": "The Watering Bowl",
    "category": "shops_services",
    "lat": 40.7489,
    "lon": -73.989,
    "address": "339 E 25th St, New York, NY 10010",
    "website": "https://www.thewateringbowl.com",
    "phone": "+1-212-679-2818",
    "description": "Full-service dog daycare, grooming, and boarding facility in Gramercy",
    "photos": [],
    "verified": true
  },
  {
    "id": "new-york-washington-square-park-dog-run",
    "country": "united-states",
    "city": "new-york",
    "name": "Washington Square Park Dog Run",
    "category": "parks",
    "lat": 40.7308,
    "lon": -73.9973,
    "address": "Washington Square Park, New York, NY 10012",
    "website": "https://washingtonsquareparkconservancy.org",
    "description": "Popular fenced dog run in Greenwich Village with benches and water access",
    "photos": [
      "https://images.unsplash.com/photo-1568393691622-c7ba131d63b4?auto=format&fit=crop&w=800&q=80"
    ],
    "verified": true
  },
  {
    "id": "new-york-hudson-river-park-dog-runs",
    "country": "united-states",
    "city": "new-york",
    "name": "Hudson River Park Dog Runs",
    "category": "parks",
    "lat": 40.7307,
    "lon": -74.011,
    "address": "Hudson River Park, New York, NY 10014",
    "website": "https://hudsonriverpark.org/dogs-in-the-park",
    "description": "Multiple dog runs along the Hudson River waterfront with views of the river",
    "photos": [],
    "verified": true
  },
  {
    "id": "new-york-tompkins-square-park-dog-run",
    "country": "united-states",
    "city": "new-york",
    "name": "Tompkins Square Park Dog Run",
    "category": "parks",
    "lat": 40.7266,
    "lon": -73.9808,
    "address": "Tompkins Square Park, New York, NY 10009",
    "website": "https://www.nycgovparks.org",
    "description": "Historic dog run in East Village, one of NYC's first official dog parks",
    "photos": [
      "https://images.unsplash.com/photo-1548199973-03cce0bbc87b?auto=format&fit=crop&w=800&q=80"
    ],
    "verified": true
  },
  {
    "id": "new-york-biscuits-bath",
    "country": "united-states",
    "city": "new-york",
    "name": "Biscuits & Bath",
    "category": "shops_services",
    "lat": 40.7614,
    "lon": -73.9776,
    "address": "227 E 44th St, New York, NY 10017",
    "website": "https://www.biscuitsandbath.com",
    "phone": "+1-212-692-2323",
    "description": "Premium dog daycare, grooming, and training with multiple Manhattan locations",
    "photos": [],
    "verified": true
  },
  {
    "id": "new-york-chelsea-waterside-park-dog-run",
    "country": "united-states",
    "city": "new-york",
    "name": "Chelsea Waterside Park Dog Run",
    "category": "parks",
    "lat": 40.7499,
    "lon": -74.0067,
    "address": "Hudson River Greenway, New York, NY 10011",
    "website": "https://www.nycgovparks.org",
    "description": "Spacious dog run in Chelsea with separate areas for large and small dogs",
    "photos": [
      "https://images.unsplash.com/photo-1587300003388-59208cc962cb?auto=format&fit=crop&w=800&q=80"
    ],
    "verified": true
  },
  {
    "id": "new-york-le-pain-quotidien-union-square",
    "country": "united-states",
    "city": "new-york",
    "name": "Le Pain Quotidien - Union Square",
    "category": "cafes_restaurants",
    "lat": 40.7359,
    "lon": -73.9911,
    "address": "801 Broadway, New York, NY 10003",
    "website": "https://www.lepainquotidien.com",
    "phone": "+1-212-677-5277",
    "description": "Dog-friendly bakery-restaurant with outdoor seating and fresh pastries",
    "photos": [],
    "verified": true
  },
  {
    "id": "new-york-madison-square-park-dog-run",
    "country": "united-states",
    "city": "new-york",
    "name": "Madison Square Park Dog Run",
    "category": "parks",
    "lat": 40.7414,
    "lon": -73.9882,
    "address": "Madison Square Park, New York, NY 10010",
    "website": "https://www.madisonsquarepark.org",
    "description": "Well-maintained dog run near Flatiron with shaded areas and water fountains",
    "photos": [
      "https://images.unsplash.com/photo-1568515387631-8b650bbcdb90?auto=format&fit=crop&w=800&q=80"
    ],
    "verified": true
  },
  {
    "id": "new-york-brooklyn-bridge-park-dog-beach",
    "country": "united-states",
    "city": "new-york",
    "name": "Brooklyn Bridge Park Dog Beach",
    "category": "parks",
    "lat": 40.699,
    "lon": -73.9962,
    "address": "334 Furman St, Brooklyn, NY 11201",
    "website": "https://www.brooklynbridgepark.org",
    "description": "Waterfront dog beach with stunning Manhattan skyline views",
    "photos": [],
    "verified": true
  },
  {
    "id": "new-york-the-dog-store",
    "country": "united-states",
    "city": "new-york",
    "name": "The Dog Store",
    "category": "shops_services",
    "lat": 40.7267,
    "lon": -73.9832,
    "address": "328 E 9th St, New York, NY 10003",
    "website": "https://www.thedogstoreonline.com",
    "phone": "+1-212-228-5617",
    "description": "Specialty pet store in East Village with premium food, toys, and accessories",
    "photos": [],
    "verified": true
  },
  {
    "id": "new-york-riverside-park-dog-runs",
    "country": "united-states",
    "city": "new-york",
    "name": "Riverside Park Dog Runs",
    "category": "parks",
    "lat": 40.7956,
    "lon": -73.9722,
    "address": "Riverside Park, New York, NY 10025",
    "website": "https://www.nycgovparks.org",
    "description": "Series of dog runs along the Hudson River with great views and amenities",
    "photos": [],
    "verified": true
  },
  {
    "id": "new-york-little-west-12th-historic-dog-run",
    "country": "united-states",
    "city": "new-york",
    "name": "Little West 12th Historic Dog Run",
    "category": "parks",
    "lat": 40.7407,
    "lon": -74.0088,
    "address": "Little W 12th St, New York, NY 10014",
    "website": "https://www.nycgovparks.org",
    "description": "Charming dog run in the Meatpacking District with vintage aesthetic",
    "photos": [],
    "verified": true
  },
  {
    "id": "los-angeles-runyon-canyon-dog-park",
    "country": "united-states",
    "city": "los-angeles",
    "name": "Runyon Canyon Dog Park",
    "category": "parks",
    "lat": 34.1122,
    "lon": -118.3515,
    "address": "2000 N Fuller Ave, Los Angeles, CA 90046",
    "website": "https://www.laparks.org",
    "description": "Popular hillside dog park with off-leash trails and panoramic city views",
    "photos": [],
    "verified": true
  },
  {
    "id": "los-angeles-the-dog-caf",
    "country": "united-states",
    "city": "los-angeles",
    "name": "The Dog Café",
    "category": "cafes_restaurants",
    "lat": 34.0979,
    "lon": -118.3705,
    "address": "7250 Melrose Ave, Los Angeles, CA 90046",
    "website": "https://www.thedogcafela.com",
    "phone": "+1-323-433-3013",
    "description": "Dog-friendly café where you can adopt rescue dogs while enjoying coffee",
    "photos": [
      "https://images.unsplash.com/photo-1554118811-1e0d58224f24?auto=format&fit=crop&w=800&q=80"
    ],
    "verified": true
  },
  {
    "id": "los-angeles-laurel-canyon-dog-park",
    "country": "united-states",
    "city": "los-angeles",
    "name": "Laurel Canyon Dog Park",
    "category": "parks",
    "lat": 34.1165,
    "lon": -118.3867,
    "address": "8260 Mulholland Dr, Los Angeles, CA 90046",
    "website": "https://www.laparks.org",
    "description": "Fenced off-leash dog park in the Hollywood Hills with shade trees",
    "photos": [
      "https://images.unsplash.com/photo-1568393691622-c7ba131d63b4?auto=format&fit=crop&w=800&q=80"
    ],
    "verified": true
  },
  {
    "id": "los-angeles-rosies-dog-beach",
    "country": "united-states",
    "city": "los-angeles",
    "name": "Rosie's Dog Beach",
    "category": "parks",
    "lat": 33.7553,
    "lon": -118.1739,
    "address": "5000 E Ocean Blvd, Long Beach, CA 90803",
    "website": "https://www.longbeach.gov",
    "description": "The original dog beach in Southern California with off-leash beach access",
    "photos": [],
    "verified": true
  },
  {
    "id": "los-angeles-silverlake-dog-park",
    "country": "united-states",
    "city": "los-angeles",
    "name": "Silverlake Dog Park",
    "category": "parks",
    "lat": 34.0873,
    "lon": -118.2708,
    "address": "1850 W Silver Lake Dr, Los Angeles, CA 90026",
    "website": "https://www.laparks.org",
    "description": "Community dog park with separate areas for large and small dogs",
    "photos": [
      "https://images.unsplash.com/photo-1548199973-03cce0bbc87b?auto=format&fit=crop&w=800&q=80"
    ],
    "verified": true
  },
  {
    "id": "los-angeles-the-canine-hotel-daycare",
    "country": "united-states",
    "city": "los-angeles",
    "name": "The Canine Hotel & Daycare",
    "category": "shops_services",
    "lat": 34.0532,
    "lon": -118.2573,
    "address": "720 E 4th Pl, Los Angeles, CA 90013",
    "website": "https://www.thecaninehotel.com",
    "phone": "+1-213-625-2583",
    "description": "Luxury dog boarding and daycare facility in Downtown LA",
    "photos": [],
    "verified": true
  },
  {
    "id": "los-angeles-griffith-park-dog-park",
    "country": "united-states",
    "city": "los-angeles",
    "name": "Griffith Park Dog Park",
    "category": "parks",
    "lat": 34.1341,
    "lon": -118.2944,
    "address": "4730 Crystal Springs Dr, Los Angeles, CA 90027",
    "website": "https://www.laparks.org",
    "description": "Large off-leash area near the Observatory with hiking trails",
    "photos": [],
    "verified": true
  },
  {
    "id": "los-angeles-muddy-paw",
    "country": "united-states",
    "city": "los-angeles",
    "name": "Muddy Paw",
    "category": "shops_services",
    "lat": 34.1015,
    "lon": -118.3289,
    "address": "8716 Santa Monica Blvd, West Hollywood, CA 90069",
    "website": "https://www.muddypaw.com",
    "phone": "+1-310-659-1950",
    "description": "Self-service dog wash and grooming salon in West Hollywood",
    "photos": [],
    "verified": true
  },
  {
    "id": "los-angeles-culver-city-dog-park",
    "country": "united-states",
    "city": "los-angeles",
    "name": "Culver City Dog Park",
    "category": "parks",
    "lat": 34.0176,
    "lon": -118.4006,
    "address": "Jefferson Blvd & Duquesne Ave, Culver City, CA 90232",
    "website": "https://www.culvercity.org",
    "description": "Modern dog park with artificial turf and water features",
    "photos": [
      "https://images.unsplash.com/photo-1587300003388-59208cc962cb?auto=format&fit=crop&w=800&q=80"
    ],
    "verified": true
  },
  {
    "id": "los-angeles-zinc-cafe-market",
    "country": "united-states",
    "city": "los-angeles",
    "name": "Zinc Cafe & Market",
    "category": "cafes_restaurants",
    "lat": 34.1632,
    "lon": -118.5012,
    "address": "580 Mateo St, Los Angeles, CA 90013",
    "website": "https://www.zinccafe.com",
    "phone": "+1-213-687-0300",
    "description": "Dog-friendly organic café with outdoor patio in the Arts District",
    "photos": [],
    "verified": true
  },
  {
    "id": "los-angeles-barrington-dog-park",
    "country": "united-states",
    "city": "los-angeles",
    "name": "Barrington Dog Park",
    "category": "parks",
    "lat": 34.0582,
    "lon": -118.4674,
    "address": "333 S Barrington Ave, Los Angeles, CA 90049",
    "website": "https://www.laparks.org",
    "description": "Well-maintained Brentwood dog park with agility equipment",
    "photos": [],
    "verified": true
  },
  {
    "id": "los-angeles-leo-carrillo-dog-beach",
    "country": "united-states",
    "city": "los-angeles",
    "name": "Leo Carrillo Dog Beach",
    "category": "parks",
    "lat": 34.0478,
    "lon": -118.9375,
    "address": "35000 CA-1, Malibu, CA 90265",
    "website": "https://www.parks.ca.gov",
    "description": "Scenic Malibu beach allowing dogs off-leash at north end",
    "photos": [],
    "verified": true
  },
  {
    "id": "los-angeles-healthy-spot",
    "country": "united-states",
    "city": "los-angeles",
    "name": "Healthy Spot",
    "category": "shops_services",
    "lat": 34.0966,
    "lon": -118.3736,
    "address": "8075 W 3rd St, Los Angeles, CA 90048",
    "website": "https://www.healthyspot.com",
    "phone": "+1-323-653-2540",
    "description": "Premium pet store and self-wash with grooming services",
    "photos": [],
    "verified": true
  },
  {
    "id": "los-angeles-aroma-coffee-tea",
    "country": "united-states",
    "city": "los-angeles",
    "name": "Aroma Coffee & Tea",
    "category": "cafes_restaurants",
    "lat": 34.1008,
    "lon": -118.3426,
    "address": "4360 Tujunga Ave, Studio City, CA 91604",
    "website": "https://www.aromacoffeela.com",
    "phone": "+1-818-508-6505",
    "description": "Dog-friendly café on Melrose with shaded outdoor seating",
    "photos": [],
    "verified": true
  },
  {
    "id": "los-angeles-hermon-dog-park",
    "country": "united-states",
    "city": "los-angeles",
    "name": "Hermon Dog Park",
    "category": "parks",
    "lat": 34.095,
    "lon": -118.1995,
    "address": "5566 Via Marisol, Los Angeles, CA 90042",
    "website": "https://www.laparks.org",
    "description": "Quiet neighborhood dog park with double-gated entry",
    "photos": [],
    "verified": true
  },
  {
    "id": "sydney-centennial-park-off-leash-area",
    "country": "australia",
    "city": "sydney",
    "name": "Centennial Park Off-Leash Area",
    "category": "parks",
    "lat": -33.8974,
    "lon": 151.2317,
    "address": "Grand Dr, Centennial Park NSW 2021",
    "website": "https://www.centennialparklands.com.au",
    "description": "Large off-leash dog park near Sydney's CBD with ponds and open fields",
    "photos": [
      "https://images.unsplash.com/photo-1568393691622-c7ba131d63b4?auto=format&fit=crop&w=800&q=80"
    ],
    "verified": true
  },
  {
    "id": "sydney-the-grounds-of-alexandria",
    "country": "australia",
    "city": "sydney",
    "name": "The Grounds of Alexandria",
    "category": "cafes_restaurants",
    "lat": -33.9083,
    "lon": 151.1987,
    "address": "7A/2 Huntley St, Alexandria NSW 2015",
    "website": "https://thegrounds.com.au",
    "phone": "+61-2-9699-2225",
    "description": "Dog-friendly garden café with specialty coffee and fresh pastries",
    "photos": [
      "https://images.unsplash.com/photo-1554118811-1e0d58224f24?auto=format&fit=crop&w=800&q=80"
    ],
    "verified": true
  },
  {
    "id": "sydney-sirius-cove-reserve-dog-park",
    "country": "australia",
    "city": "sydney",
    "name": "Sirius Cove Reserve Dog Park",
    "category": "parks",
    "lat": -33.8438,
    "lon": 151.2417,
    "address": "Sirius Cove Reserve, Mosman NSW 2088",
    "website": "https://www.mosman.nsw.gov.au",
    "description": "Waterfront off-leash area with harbour views in Mosman",
    "photos": [],
    "verified": true
  },
  {
    "id": "sydney-rushcutters-bay-park",
    "country": "australia",
    "city": "sydney",
    "name": "Rushcutters Bay Park",
    "category": "parks",
    "lat": -33.8753,
    "lon": 151.2278,
    "address": "New Beach Rd, Darling Point NSW 2027",
    "website": "https://www.woollahra.nsw.gov.au",
    "description": "Inner-city park with designated off-leash hours near the harbour",
    "photos": [
      "https://images.unsplash.com/photo-1548199973-03cce0bbc87b?auto=format&fit=crop&w=800&q=80"
    ],
    "verified": true
  },
  {
    "id": "sydney-doggy-day-care-sydney",
    "country": "australia",
    "city": "sydney",
    "name": "Doggy Day Care Sydney",
    "category": "shops_services",
    "lat": -33.8807,
    "lon": 151.2094,
    "address": "341 Crown St, Surry Hills NSW 2010",
    "website": "https://www.doggydaycaresydney.com.au",
    "phone": "+61-2-9698-5555",
    "description": "Premium doggy daycare and grooming in Surry Hills",
    "photos": [],
    "verified": true
  },
  {
    "id": "sydney-blackwattle-bay-park",
    "country": "australia",
    "city": "sydney",
    "name": "Blackwattle Bay Park",
    "category": "parks",
    "lat": -33.8783,
    "lon": 151.1892,
    "address": "Wentworth Park Rd, Glebe NSW 2037",
    "website": "https://www.cityofsydney.nsw.gov.au",
    "description": "Waterfront dog park in Glebe with harbour and bridge views",
    "photos": [],
    "verified": true
  },
  {
    "id": "sydney-federal-park-dog-beach",
    "country": "australia",
    "city": "sydney",
    "name": "Federal Park Dog Beach",
    "category": "parks",
    "lat": -33.6823,
    "lon": 151.3035,
    "address": "Stuart St, Manly Vale NSW 2093",
    "website": "https://www.northernbeaches.nsw.gov.au",
    "description": "Popular off-leash dog beach in Manly with swimming area",
    "photos": [],
    "verified": true
  },
  {
    "id": "sydney-two-pups-coffee",
    "country": "australia",
    "city": "sydney",
    "name": "Two Pups Coffee",
    "category": "cafes_restaurants",
    "lat": -33.8827,
    "lon": 151.2065,
    "address": "262 Abercrombie St, Redfern NSW 2016",
    "website": "https://www.twopupscoffee.com.au",
    "phone": "+61-2-8021-8888",
    "description": "Dog-friendly specialty coffee shop in Redfern with outdoor seating",
    "photos": [],
    "verified": true
  },
  {
    "id": "sydney-sydney-park",
    "country": "australia",
    "city": "sydney",
    "name": "Sydney Park",
    "category": "parks",
    "lat": -33.9082,
    "lon": 151.1828,
    "address": "Sydney Park Rd, Alexandria NSW 2015",
    "website": "https://www.cityofsydney.nsw.gov.au",
    "description": "Large inner-city park with designated off-leash areas and wetlands",
    "photos": [
      "https://images.unsplash.com/photo-1587300003388-59208cc962cb?auto=format&fit=crop&w=800&q=80"
    ],
    "verified": true
  },
  {
    "id": "sydney-pawsh-dog-wash-grooming",
    "country": "australia",
    "city": "sydney",
    "name": "Pawsh Dog Wash & Grooming",
    "category": "shops_services",
    "lat": -33.8908,
    "lon": 151.1829,
    "address": "134 King St, Newtown NSW 2042",
    "website": "https://www.pawshdogwash.com.au",
    "phone": "+61-2-9557-3344",
    "description": "Self-service dog wash and professional grooming in Newtown",
    "photos": [],
    "verified": true
  },
  {
    "id": "sydney-observatory-hill-park",
    "country": "australia",
    "city": "sydney",
    "name": "Observatory Hill Park",
    "category": "parks",
    "lat": -33.8594,
    "lon": 151.2048,
    "address": "Watson Rd, The Rocks NSW 2000",
    "website": "https://www.cityofsydney.nsw.gov.au",
    "description": "Historic park with off-leash hours and panoramic city views",
    "photos": [],
    "verified": true
  },
  {
    "id": "sydney-rose-bay-beach",
    "country": "australia",
    "city": "sydney",
    "name": "Rose Bay Beach",
    "category": "parks",
    "lat": -33.8696,
    "lon": 151.2717,
    "address": "New South Head Rd, Rose Bay NSW 2029",
    "website": "https://www.woollahra.nsw.gov.au",
    "description": "Eastern suburbs beach with morning off-leash hours",
    "photos": [],
    "verified": true
  },
  {
    "id": "sydney-the-bourke-street-bakery",
    "country": "australia",
    "city": "sydney",
    "name": "The Bourke Street Bakery",
    "category": "cafes_restaurants",
    "lat": -33.8827,
    "lon": 151.2065,
    "address": "633 Bourke St, Surry Hills NSW 2010",
    "website": "https://www.bourkestreetbakery.com.au",
    "phone": "+61-2-9699-1011",
    "description": "Iconic dog-friendly bakery with outdoor tables in Surry Hills",
    "photos": [],
    "verified": true
  },
  {
    "id": "sydney-bicentennial-park",
    "country": "australia",
    "city": "sydney",
    "name": "Bicentennial Park",
    "category": "parks",
    "lat": -33.8266,
    "lon": 151.0735,
    "address": "Australia Ave, Sydney Olympic Park NSW 2127",
    "website": "https://www.bicentennialpark.com.au",
    "description": "Large parkland with dedicated off-leash areas and water access",
    "photos": [],
    "verified": true
  },
  {
    "id": "sydney-milk-beach-reserve",
    "country": "australia",
    "city": "sydney",
    "name": "Milk Beach Reserve",
    "category": "parks",
    "lat": -33.8522,
    "lon": 151.2684,
    "address": "Vaucluse NSW 2030",
    "website": "https://www.woollahra.nsw.gov.au",
    "description": "Secluded harbour beach in Vaucluse with off-leash swimming",
    "photos": [],
    "verified": true
  },
  {
    "id": "melbourne-fawkner-park-dog-park",
    "country": "australia",
    "city": "melbourne",
    "name": "Fawkner Park Dog Park",
    "category": "parks",
    "lat": -37.8378,
    "lon": 144.9871,
    "address": "Toorak Rd W, South Yarra VIC 3141",
    "website": "https://www.melbourne.vic.gov.au",
    "description": "Popular inner-city off-leash area with separate sections for dogs",
    "photos": [
      "https://images.unsplash.com/photo-1568393691622-c7ba131d63b4?auto=format&fit=crop&w=800&q=80"
    ],
    "verified": true
  },
  {
    "id": "melbourne-st-kilda-dog-beach",
    "country": "australia",
    "city": "melbourne",
    "name": "St Kilda Dog Beach",
    "category": "parks",
    "lat": -37.8677,
    "lon": 144.9735,
    "address": "Pier Rd, St Kilda VIC 3182",
    "website": "https://www.portphillip.vic.gov.au",
    "description": "Famous off-leash beach with dedicated dog swimming area",
    "photos": [],
    "verified": true
  },
  {
    "id": "melbourne-pooches-pinot",
    "country": "australia",
    "city": "melbourne",
    "name": "Pooches & Pinot",
    "category": "cafes_restaurants",
    "lat": -37.8652,
    "lon": 144.9737,
    "address": "230 Barkly St, St Kilda VIC 3182",
    "website": "https://www.poochesandpinot.com.au",
    "phone": "+61-3-9534-2100",
    "description": "Unique dog-friendly wine bar and café in St Kilda",
    "photos": [
      "https://images.unsplash.com/photo-1554118811-1e0d58224f24?auto=format&fit=crop&w=800&q=80"
    ],
    "verified": true
  },
  {
    "id": "melbourne-royal-park-off-leash",
    "country": "australia",
    "city": "melbourne",
    "name": "Royal Park Off-Leash",
    "category": "parks",
    "lat": -37.7836,
    "lon": 144.9509,
    "address": "Gatehouse St, Parkville VIC 3052",
    "website": "https://www.melbourne.vic.gov.au",
    "description": "Massive off-leash area in Melbourne's largest inner-city park",
    "photos": [
      "https://images.unsplash.com/photo-1548199973-03cce0bbc87b?auto=format&fit=crop&w=800&q=80"
    ],
    "verified": true
  },
  {
    "id": "melbourne-the-dog-house",
    "country": "australia",
    "city": "melbourne",
    "name": "The Dog House",
    "category": "shops_services",
    "lat": -37.803,
    "lon": 144.9631,
    "address": "28 Canning St, North Melbourne VIC 3051",
    "website": "https://www.thedoghousemelbourne.com.au",
    "phone": "+61-3-9328-3344",
    "description": "Premium dog daycare and grooming in North Melbourne",
    "photos": [],
    "verified": true
  },
  {
    "id": "melbourne-yarra-bend-park",
    "country": "australia",
    "city": "melbourne",
    "name": "Yarra Bend Park",
    "category": "parks",
    "lat": -37.7969,
    "lon": 145.0142,
    "address": "Yarra Bend Rd, Fairfield VIC 3078",
    "website": "https://www.parks.vic.gov.au",
    "description": "Large parkland with riverside off-leash areas and walking trails",
    "photos": [],
    "verified": true
  },
  {
    "id": "melbourne-westgate-park-dog-beach",
    "country": "australia",
    "city": "melbourne",
    "name": "Westgate Park Dog Beach",
    "category": "parks",
    "lat": -37.8358,
    "lon": 144.9127,
    "address": "Todd Rd, Port Melbourne VIC 3207",
    "website": "https://www.parks.vic.gov.au",
    "description": "Waterfront off-leash area with beach access near the city",
    "photos": [],
    "verified": true
  },
  {
    "id": "melbourne-axil-coffee-roasters",
    "country": "australia",
    "city": "melbourne",
    "name": "Axil Coffee Roasters",
    "category": "cafes_restaurants",
    "lat": -37.8012,
    "lon": 144.9945,
    "address": "322 Burwood Rd, Hawthorn VIC 3122",
    "website": "https://www.axilcoffee.com.au",
    "phone": "+61-3-9815-7215",
    "description": "Dog-friendly specialty coffee roaster with outdoor seating",
    "photos": [],
    "verified": true
  },
  {
    "id": "melbourne-edinburgh-gardens",
    "country": "australia",
    "city": "melbourne",
    "name": "Edinburgh Gardens",
    "category": "parks",
    "lat": -37.781,
    "lon": 144.9887,
    "address": "North Fitzroy VIC 3068",
    "website": "https://www.yarracity.vic.gov.au",
    "description": "Popular park with large off-leash area and BBQ facilities",
    "photos": [
      "https://images.unsplash.com/photo-1587300003388-59208cc962cb?auto=format&fit=crop&w=800&q=80"
    ],
    "verified": true
  },
  {
    "id": "melbourne-bark-bath-biscuit",
    "country": "australia",
    "city": "melbourne",
    "name": "Bark Bath & Biscuit",
    "category": "shops_services",
    "lat": -37.8136,
    "lon": 144.9631,
    "address": "130 Elgin St, Carlton VIC 3053",
    "website": "https://www.barkbathandbiscuit.com.au",
    "phone": "+61-3-9347-4455",
    "description": "Self-service dog wash and grooming in Carlton",
    "photos": [],
    "verified": true
  },
  {
    "id": "melbourne-fitzroy-gardens",
    "country": "australia",
    "city": "melbourne",
    "name": "Fitzroy Gardens",
    "category": "parks",
    "lat": -37.8143,
    "lon": 144.98,
    "address": "Wellington Pde, East Melbourne VIC 3002",
    "website": "https://www.melbourne.vic.gov.au",
    "description": "Historic gardens with morning off-leash areas",
    "photos": [],
    "verified": true
  },
  {
    "id": "melbourne-altona-dog-beach",
    "country": "australia",
    "city": "melbourne",
    "name": "Altona Dog Beach",
    "category": "parks",
    "lat": -37.8711,
    "lon": 144.8286,
    "address": "The Esplanade, Altona VIC 3018",
    "website": "https://www.hobsonsbay.vic.gov.au",
    "description": "Western suburbs beach with year-round off-leash access",
    "photos": [],
    "verified": true
  },
  {
    "id": "melbourne-chez-dr",
    "country": "australia",
    "city": "melbourne",
    "name": "Chez Dré",
    "category": "cafes_restaurants",
    "lat": -37.8696,
    "lon": 144.9827,
    "address": "525 Malvern Rd, Prahran VIC 3181",
    "website": "https://www.chezdre.com.au",
    "phone": "+61-3-9529-5147",
    "description": "Dog-friendly patisserie and café with French pastries",
    "photos": [],
    "verified": true
  },
  {
    "id": "melbourne-albert-park-lake",
    "country": "australia",
    "city": "melbourne",
    "name": "Albert Park Lake",
    "category": "parks",
    "lat": -37.8434,
    "lon": 144.9729,
    "address": "Aughtie Dr, Albert Park VIC 3206",
    "website": "https://www.portphillip.vic.gov.au",
    "description": "Scenic lake with designated off-leash areas and walking paths",
    "photos": [],
    "verified": true
  },
  {
    "id": "melbourne-brighton-dog-beach",
    "country": "australia",
    "city": "melbourne",
    "name": "Brighton Dog Beach",
    "category": "parks",
    "lat": -37.9193,
    "lon": 144.9875,
    "address": "The Esplanade, Brighton VIC 3186",
    "website": "https://www.bayside.vic.gov.au",
    "description": "Bayside off-leash beach with calm waters and sand",
    "photos": [],
    "verified": true
  },
  {
    "id": "buenos-aires-parque-centenario-plaza-de-perros",
    "country": "argentina",
    "city": "buenos-aires",
    "name": "Parque Centenario Plaza de Perros",
    "category": "parks",
    "lat": -34.6067,
    "lon": -58.4362,
    "address": "Av. Patricias Argentinas, Buenos Aires",
    "website": "https://www.buenosaires.gob.ar",
    "description": "Popular dog park in Centenario with separate areas for large and small dogs",
    "photos": [
      "https://images.unsplash.com/photo-1568393691622-c7ba131d63b4?auto=format&fit=crop&w=800&q=80"
    ],
    "verified": true
  },
  {
    "id": "buenos-aires-lab-caf-palermo",
    "country": "argentina",
    "city": "buenos-aires",
    "name": "LAB Café Palermo",
    "category": "cafes_restaurants",
    "lat": -34.5864,
    "lon": -58.4267,
    "address": "Thames 1885, Buenos Aires",
    "website": "https://www.labcafe.com.ar",
    "phone": "+54-11-4831-5261",
    "description": "Dog-friendly café in Palermo Soho with specialty coffee and brunch",
    "photos": [
      "https://images.unsplash.com/photo-1554118811-1e0d58224f24?auto=format&fit=crop&w=800&q=80"
    ],
    "verified": true
  },
  {
    "id": "buenos-aires-parque-3-de-febrero-bosques-de-palermo",
    "country": "argentina",
    "city": "buenos-aires",
    "name": "Parque 3 de Febrero (Bosques de Palermo)",
    "category": "parks",
    "lat": -34.5775,
    "lon": -58.4156,
    "address": "Av. del Libertador, Palermo, Buenos Aires",
    "website": "https://www.buenosaires.gob.ar",
    "description": "Massive park with multiple dog-friendly areas and lakes",
    "photos": [
      "https://images.unsplash.com/photo-1548199973-03cce0bbc87b?auto=format&fit=crop&w=800&q=80"
    ],
    "verified": true
  },
  {
    "id": "buenos-aires-veterinaria-palermo",
    "country": "argentina",
    "city": "buenos-aires",
    "name": "Veterinaria Palermo",
    "category": "shops_services",
    "lat": -34.5841,
    "lon": -58.4232,
    "address": "Av. Santa Fe 3601, Buenos Aires",
    "website": "https://www.vetpalermo.com.ar",
    "phone": "+54-11-4823-4567",
    "description": "Full-service veterinary clinic and pet supplies in Palermo",
    "photos": [],
    "verified": true
  },
  {
    "id": "buenos-aires-plaza-armenia-dog-area",
    "country": "argentina",
    "city": "buenos-aires",
    "name": "Plaza Armenia Dog Area",
    "category": "parks",
    "lat": -34.5899,
    "lon": -58.4258,
    "address": "Plaza Armenia, Buenos Aires",
    "website": "https://www.buenosaires.gob.ar",
    "description": "Neighborhood dog park in Palermo with shade trees and benches",
    "photos": [],
    "verified": true
  },
  {
    "id": "buenos-aires-parque-sarmiento-dog-zone",
    "country": "argentina",
    "city": "buenos-aires",
    "name": "Parque Sarmiento Dog Zone",
    "category": "parks",
    "lat": -34.6406,
    "lon": -58.4794,
    "address": "Av. Elcano, Buenos Aires",
    "website": "https://www.buenosaires.gob.ar",
    "description": "Western Buenos Aires park with designated off-leash areas",
    "photos": [],
    "verified": true
  },
  {
    "id": "buenos-aires-coffee-town",
    "country": "argentina",
    "city": "buenos-aires",
    "name": "Coffee Town",
    "category": "cafes_restaurants",
    "lat": -34.5919,
    "lon": -58.4018,
    "address": "Av. Santa Fe 1560, Buenos Aires",
    "website": "https://www.coffeetownba.com.ar",
    "phone": "+54-11-4816-7890",
    "description": "Dog-friendly specialty coffee shop in Recoleta",
    "photos": [],
    "verified": true
  },
  {
    "id": "buenos-aires-pet-shop-mundo-animal",
    "country": "argentina",
    "city": "buenos-aires",
    "name": "Pet Shop Mundo Animal",
    "category": "shops_services",
    "lat": -34.5759,
    "lon": -58.4351,
    "address": "Av. Córdoba 5695, Buenos Aires",
    "website": "https://www.mundoanimal.com.ar",
    "phone": "+54-11-4774-3322",
    "description": "Premium pet store with grooming services in Palermo",
    "photos": [],
    "verified": true
  },
  {
    "id": "buenos-aires-parque-chacabuco-plaza-canina",
    "country": "argentina",
    "city": "buenos-aires",
    "name": "Parque Chacabuco Plaza Canina",
    "category": "parks",
    "lat": -34.6394,
    "lon": -58.4495,
    "address": "Av. Asamblea, Buenos Aires",
    "website": "https://www.buenosaires.gob.ar",
    "description": "Community dog park in Chacabuco neighborhood",
    "photos": [
      "https://images.unsplash.com/photo-1587300003388-59208cc962cb?auto=format&fit=crop&w=800&q=80"
    ],
    "verified": true
  },
  {
    "id": "buenos-aires-full-city-coffee-house",
    "country": "argentina",
    "city": "buenos-aires",
    "name": "Full City Coffee House",
    "category": "cafes_restaurants",
    "lat": -34.5977,
    "lon": -58.3778,
    "address": "Av. Defensa 1200, Buenos Aires",
    "website": "https://www.fullcitycoffee.com.ar",
    "phone": "+54-11-4361-5544",
    "description": "Dog-friendly artisan café in San Telmo with outdoor tables",
    "photos": [],
    "verified": true
  },
  {
    "id": "buenos-aires-reserva-ecolgica-dog-trail",
    "country": "argentina",
    "city": "buenos-aires",
    "name": "Reserva Ecológica Dog Trail",
    "category": "parks",
    "lat": -34.6071,
    "lon": -58.3526,
    "address": "Av. Tristán Achával Rodríguez, Buenos Aires",
    "website": "https://www.buenosaires.gob.ar",
    "description": "Nature reserve with dog-friendly trails and wetlands",
    "photos": [],
    "verified": true
  },
  {
    "id": "buenos-aires-barrancas-de-belgrano",
    "country": "argentina",
    "city": "buenos-aires",
    "name": "Barrancas de Belgrano",
    "category": "parks",
    "lat": -34.5631,
    "lon": -58.4572,
    "address": "Av. del Libertador, Belgrano, Buenos Aires",
    "website": "https://www.buenosaires.gob.ar",
    "description": "Historic park with off-leash areas and cultural events",
    "photos": [],
    "verified": true
  },
  {
    "id": "buenos-aires-lattente",
    "country": "argentina",
    "city": "buenos-aires",
    "name": "Lattente",
    "category": "cafes_restaurants",
    "lat": -34.5862,
    "lon": -58.4249,
    "address": "Av. Dorrego 1680, Buenos Aires",
    "website": "https://www.lattente.com.ar",
    "phone": "+54-11-4832-6677",
    "description": "Italian-style dog-friendly café in Palermo Hollywood",
    "photos": [],
    "verified": true
  },
  {
    "id": "buenos-aires-parque-rivadavia-dog-area",
    "country": "argentina",
    "city": "buenos-aires",
    "name": "Parque Rivadavia Dog Area",
    "category": "parks",
    "lat": -34.6367,
    "lon": -58.4389,
    "address": "Av. Rivadavia 4900, Buenos Aires",
    "website": "https://www.buenosaires.gob.ar",
    "description": "Neighborhood park with morning off-leash hours",
    "photos": [],
    "verified": true
  },
  {
    "id": "buenos-aires-perruno-pet-shop",
    "country": "argentina",
    "city": "buenos-aires",
    "name": "Perruno Pet Shop",
    "category": "shops_services",
    "lat": -34.5876,
    "lon": -58.3952,
    "address": "Av. Las Heras 2156, Buenos Aires",
    "website": "https://www.perruno.com.ar",
    "phone": "+54-11-4801-2233",
    "description": "Pet supplies and veterinary services in Recoleta",
    "photos": [],
    "verified": true
  },
  {
    "id": "cordoba-parque-sarmiento-dog-area",
    "country": "argentina",
    "city": "cordoba",
    "name": "Parque Sarmiento Dog Area",
    "category": "parks",
    "lat": -31.4201,
    "lon": -64.1888,
    "address": "Av. García Lorca, Córdoba",
    "website": "https://www.cordoba.gob.ar",
    "description": "Large urban park with designated dog areas and walking paths",
    "photos": [
      "https://images.unsplash.com/photo-1568393691622-c7ba131d63b4?auto=format&fit=crop&w=800&q=80"
    ],
    "verified": true
  },
  {
    "id": "cordoba-caf-des-arts",
    "country": "argentina",
    "city": "cordoba",
    "name": "Café des Arts",
    "category": "cafes_restaurants",
    "lat": -31.4173,
    "lon": -64.1889,
    "address": "Obispo Trejo 165, Córdoba",
    "website": "https://www.cafedesarts.com.ar",
    "phone": "+54-351-422-3344",
    "description": "Dog-friendly café in Nueva Córdoba with outdoor seating",
    "photos": [
      "https://images.unsplash.com/photo-1554118811-1e0d58224f24?auto=format&fit=crop&w=800&q=80"
    ],
    "verified": true
  },
  {
    "id": "cordoba-parque-de-las-tejas",
    "country": "argentina",
    "city": "cordoba",
    "name": "Parque de las Tejas",
    "category": "parks",
    "lat": -31.3985,
    "lon": -64.2247,
    "address": "Las Tejas, Córdoba",
    "website": "https://www.cordoba.gob.ar",
    "description": "Hilltop park with scenic views and dog-friendly trails",
    "photos": [
      "https://images.unsplash.com/photo-1548199973-03cce0bbc87b?auto=format&fit=crop&w=800&q=80"
    ],
    "verified": true
  },
  {
    "id": "cordoba-veterinaria-san-martn",
    "country": "argentina",
    "city": "cordoba",
    "name": "Veterinaria San Martín",
    "category": "shops_services",
    "lat": -31.4201,
    "lon": -64.1877,
    "address": "Av. Hipólito Yrigoyen 456, Córdoba",
    "website": "https://www.vetsanmartin.com.ar",
    "phone": "+54-351-421-7788",
    "description": "Full-service veterinary clinic in city center",
    "photos": [],
    "verified": true
  },
  {
    "id": "cordoba-parque-las-heras",
    "country": "argentina",
    "city": "cordoba",
    "name": "Parque Las Heras",
    "category": "parks",
    "lat": -31.4088,
    "lon": -64.1814,
    "address": "Bv. Las Heras, Córdoba",
    "website": "https://www.cordoba.gob.ar",
    "description": "Neighborhood park with morning off-leash hours",
    "photos": [],
    "verified": true
  },
  {
    "id": "cordoba-el-refugio-pet-shop",
    "country": "argentina",
    "city": "cordoba",
    "name": "El Refugio Pet Shop",
    "category": "shops_services",
    "lat": -31.4235,
    "lon": -64.1892,
    "address": "Av. Vélez Sársfield 567, Córdoba",
    "website": "https://www.elrefugiocba.com.ar",
    "phone": "+54-351-426-5544",
    "description": "Pet supplies and grooming services in Nueva Córdoba",
    "photos": [],
    "verified": true
  },
  {
    "id": "cordoba-parque-san-vicente",
    "country": "argentina",
    "city": "cordoba",
    "name": "Parque San Vicente",
    "category": "parks",
    "lat": -31.3915,
    "lon": -64.2198,
    "address": "San Vicente, Córdoba",
    "website": "https://www.cordoba.gob.ar",
    "description": "Large park with open spaces for dogs in Cerro de las Rosas",
    "photos": [],
    "verified": true
  },
  {
    "id": "cordoba-verde-que-te-quiero-verde",
    "country": "argentina",
    "city": "cordoba",
    "name": "Verde Que Te Quiero Verde",
    "category": "cafes_restaurants",
    "lat": -31.4165,
    "lon": -64.1895,
    "address": "Obispo Trejo 329, Córdoba",
    "website": "https://www.verdequetequieroverde.com.ar",
    "phone": "+54-351-422-6677",
    "description": "Organic dog-friendly café with vegetarian options",
    "photos": [],
    "verified": true
  },
  {
    "id": "cordoba-bosque-alegre-dog-trail",
    "country": "argentina",
    "city": "cordoba",
    "name": "Bosque Alegre Dog Trail",
    "category": "parks",
    "lat": -31.5997,
    "lon": -64.5478,
    "address": "Ruta E-57, Córdoba",
    "website": "https://www.cordoba.gob.ar",
    "description": "Mountain trails with dog-friendly hiking paths",
    "photos": [],
    "verified": true
  },
  {
    "id": "cordoba-superpet-crdoba",
    "country": "argentina",
    "city": "cordoba",
    "name": "Superpet Córdoba",
    "category": "shops_services",
    "lat": -31.3922,
    "lon": -64.2445,
    "address": "Av. Rafael Núñez 4567, Córdoba",
    "website": "https://www.superpet.com.ar",
    "phone": "+54-351-481-2233",
    "description": "Large pet store chain with grooming and veterinary services",
    "photos": [],
    "verified": true
  },
  {
    "id": "tokyo-yoyogi-park-dog-run",
    "country": "japan",
    "city": "tokyo",
    "name": "Yoyogi Park Dog Run",
    "category": "parks",
    "lat": 35.6708,
    "lon": 139.6953,
    "address": "2-1 Yoyogikamizonocho, Shibuya City, Tokyo 151-0052",
    "website": "https://www.tokyo-park.or.jp",
    "description": "Popular fenced dog park in Harajuku near Meiji Shrine",
    "photos": [
      "https://images.unsplash.com/photo-1568393691622-c7ba131d63b4?auto=format&fit=crop&w=800&q=80"
    ],
    "verified": true
  },
  {
    "id": "tokyo-dog-heart-from-aquamarine",
    "country": "japan",
    "city": "tokyo",
    "name": "Dog Heart from Aquamarine",
    "category": "cafes_restaurants",
    "lat": 35.6585,
    "lon": 139.7454,
    "address": "20-23 Sarugakucho, Shibuya City, Tokyo 150-0033",
    "website": "https://www.dogheart.jp",
    "phone": "+81-3-6455-3215",
    "description": "Dog café in Daikanyama where you can meet adoptable dogs",
    "photos": [
      "https://images.unsplash.com/photo-1554118811-1e0d58224f24?auto=format&fit=crop&w=800&q=80"
    ],
    "verified": true
  },
  {
    "id": "tokyo-komazawa-olympic-park-dog-run",
    "country": "japan",
    "city": "tokyo",
    "name": "Komazawa Olympic Park Dog Run",
    "category": "parks",
    "lat": 35.6285,
    "lon": 139.6594,
    "address": "1-1 Komazawa Park, Setagaya City, Tokyo 154-0013",
    "website": "https://www.tokyo-park.or.jp",
    "description": "Large dog park with separate areas for small and large dogs",
    "photos": [
      "https://images.unsplash.com/photo-1548199973-03cce0bbc87b?auto=format&fit=crop&w=800&q=80"
    ],
    "verified": true
  },
  {
    "id": "tokyo-green-dog-shibuya",
    "country": "japan",
    "city": "tokyo",
    "name": "Green Dog Shibuya",
    "category": "shops_services",
    "lat": 35.658,
    "lon": 139.6989,
    "address": "3-26-5 Shibuya, Shibuya City, Tokyo 150-0002",
    "website": "https://www.green-dog.com",
    "phone": "+81-3-5778-4711",
    "description": "Premium pet store and grooming salon in Shibuya",
    "photos": [],
    "verified": true
  },
  {
    "id": "tokyo-kinuta-park-dog-run",
    "country": "japan",
    "city": "tokyo",
    "name": "Kinuta Park Dog Run",
    "category": "parks",
    "lat": 35.6255,
    "lon": 139.6225,
    "address": "1-1 Kinutakoen, Setagaya City, Tokyo 157-0075",
    "website": "https://www.tokyo-park.or.jp",
    "description": "Spacious dog park in Setagaya with scenic walking paths",
    "photos": [],
    "verified": true
  },
  {
    "id": "tokyo-wancott-dog-caf",
    "country": "japan",
    "city": "tokyo",
    "name": "Wancott Dog Café",
    "category": "cafes_restaurants",
    "lat": 35.7089,
    "lon": 139.8107,
    "address": "6-33-5 Higashinippori, Arakawa City, Tokyo 116-0014",
    "website": "https://www.wancott.com",
    "phone": "+81-3-3803-3344",
    "description": "Dog-friendly café in Arakawa with terrace seating",
    "photos": [],
    "verified": true
  },
  {
    "id": "tokyo-shibuya-pet-clinic",
    "country": "japan",
    "city": "tokyo",
    "name": "Shibuya Pet Clinic",
    "category": "shops_services",
    "lat": 35.6595,
    "lon": 139.7007,
    "address": "2-23-12 Dogenzaka, Shibuya City, Tokyo 150-0043",
    "website": "https://www.shibuya-petclinic.jp",
    "phone": "+81-3-3461-5544",
    "description": "Modern veterinary clinic with English-speaking staff",
    "photos": [],
    "verified": true
  },
  {
    "id": "tokyo-odaiba-seaside-dog-park",
    "country": "japan",
    "city": "tokyo",
    "name": "Odaiba Seaside Dog Park",
    "category": "parks",
    "lat": 35.6283,
    "lon": 139.7742,
    "address": "1-6 Daiba, Minato City, Tokyo 135-0091",
    "website": "https://www.tptc.co.jp",
    "description": "Waterfront dog run with Tokyo Bay views",
    "photos": [],
    "verified": true
  },
  {
    "id": "tokyo-fressness-dog-caf",
    "country": "japan",
    "city": "tokyo",
    "name": "Fressness Dog Café",
    "category": "cafes_restaurants",
    "lat": 35.6812,
    "lon": 139.7671,
    "address": "3-1-23 Sendagi, Bunkyo City, Tokyo 113-0022",
    "website": "https://www.fressness.com",
    "phone": "+81-3-3824-6677",
    "description": "Stylish dog café in Yanaka with homemade treats",
    "photos": [],
    "verified": true
  },
  {
    "id": "tokyo-pet-paradise-tokyo",
    "country": "japan",
    "city": "tokyo",
    "name": "Pet Paradise Tokyo",
    "category": "shops_services",
    "lat": 35.6938,
    "lon": 139.7036,
    "address": "1-14-8 Ikebukuro, Toshima City, Tokyo 171-0014",
    "website": "https://www.petparadise.co.jp",
    "phone": "+81-3-5391-7788",
    "description": "Large pet store with grooming and hotel services",
    "photos": [],
    "verified": true
  },
  {
    "id": "tokyo-inokashira-park-dog-area",
    "country": "japan",
    "city": "tokyo",
    "name": "Inokashira Park Dog Area",
    "category": "parks",
    "lat": 35.7014,
    "lon": 139.5786,
    "address": "1-18-31 Gotenyama, Musashino, Tokyo 180-0005",
    "website": "https://www.kensetsu.metro.tokyo.lg.jp",
    "description": "Scenic park in Kichijoji with designated dog zones",
    "photos": [],
    "verified": true
  },
  {
    "id": "tokyo-shiba-inu-caf",
    "country": "japan",
    "city": "tokyo",
    "name": "Shiba Inu Café",
    "category": "cafes_restaurants",
    "lat": 35.6284,
    "lon": 139.7387,
    "address": "1-10-10 Meguro, Meguro City, Tokyo 153-0063",
    "website": "https://www.shibainu-cafe.jp",
    "phone": "+81-3-5768-8899",
    "description": "Themed café where you can interact with Shiba Inus",
    "photos": [],
    "verified": true
  },
  {
    "id": "tokyo-ariake-sports-park-dog-run",
    "country": "japan",
    "city": "tokyo",
    "name": "Ariake Sports Park Dog Run",
    "category": "parks",
    "lat": 35.6394,
    "lon": 139.7939,
    "address": "2-1-29 Ariake, Koto City, Tokyo 135-0063",
    "website": "https://www.tptc.co.jp",
    "description": "Modern dog park in waterfront Ariake district",
    "photos": [],
    "verified": true
  },
  {
    "id": "tokyo-paw-paw-club",
    "country": "japan",
    "city": "tokyo",
    "name": "Paw Paw Club",
    "category": "shops_services",
    "lat": 35.6764,
    "lon": 139.7669,
    "address": "7-6-11 Ueno, Taito City, Tokyo 110-0005",
    "website": "https://www.pawpawclub.jp",
    "phone": "+81-3-5807-2233",
    "description": "Dog daycare and training center in Ueno",
    "photos": [],
    "verified": true
  },
  {
    "id": "tokyo-meguro-river-walk-dog-path",
    "country": "japan",
    "city": "tokyo",
    "name": "Meguro River Walk Dog Path",
    "category": "parks",
    "lat": 35.6445,
    "lon": 139.7005,
    "address": "Meguro River, Meguro City, Tokyo",
    "website": "https://www.city.meguro.tokyo.jp",
    "description": "Scenic riverside path popular for dog walking in spring",
    "photos": [],
    "verified": true
  }
]